
{
  "response": {
  "version":"0.1",
  "termsofService":"http://www.wunderground.com/weather/api/d/terms.html",
  "features": {
  "geolookup": 1
  ,
  "forecast": 1
  }
	}
		,	"location": {
		"type":"INTLCITY",
		"country":"DN",
		"country_iso3166":"DK",
		"country_name":"Denmark",
		"state":"",
		"city":"Odense",
		"tz_short":"CEST",
		"tz_long":"Europe/Copenhagen",
		"lat":"55.47000122",
		"lon":"10.32999992",
		"zip":"00000",
		"magic":"1",
		"wmo":"06120",
		"l":"/q/zmw:00000.1.06120",
		"requesturl":"global/stations/06120.html",
		"wuiurl":"http://www.wunderground.com/global/stations/06120.html",
		"nearby_weather_stations": {
		"airport": {
		"station": [
		{ "city":"Odense / Beldringe", "state":"", "country":"Denmark", "icao":"EKOD", "lat":"55.47499847", "lon":"10.33055592" }
		,{ "city":"Odense", "state":"", "country":"DN", "icao":"EKOD", "lat":"55.47499847", "lon":"10.33055592" }
		,{ "city":"Vamdrup", "state":"", "country":"DN", "icao":"EKVD", "lat":"55.43750000", "lon":"9.33361053" }
		,{ "city":"Soenderborg", "state":"", "country":"DN", "icao":"EKSB", "lat":"54.96222305", "lon":"9.78750038" }
		]
		}
		,
		"pws": {
		"station": [
		{
		"neighborhood":"Allesøvej",
		"city":"Odense",
		"state":"",
		"country":"DK",
		"id":"IODENSE63",
		"lat":55.453449,
		"lon":10.317951,
		"distance_km":1,
		"distance_mi":1
		},
		{
		"neighborhood":"Fredskovvej",
		"city":"Odense",
		"state":"",
		"country":"DK",
		"id":"IODENSE57",
		"lat":55.460133,
		"lon":10.291737,
		"distance_km":2,
		"distance_mi":1
		},
		{
		"neighborhood":"Agerhønevænget",
		"city":"Odense",
		"state":"",
		"country":"DK",
		"id":"IODENSE41",
		"lat":55.438499,
		"lon":10.343844,
		"distance_km":3,
		"distance_mi":2
		},
		{
		"neighborhood":"Ærtebjerggårdvej",
		"city":"Odense",
		"state":"",
		"country":"DK",
		"id":"IODENSE100",
		"lat":55.432838,
		"lon":10.332751,
		"distance_km":4,
		"distance_mi":2
		},
		{
		"neighborhood":"Anderupvænget",
		"city":"Odense",
		"state":"",
		"country":"DK",
		"id":"IODENSE89",
		"lat":55.437668,
		"lon":10.371517,
		"distance_km":4,
		"distance_mi":2
		},
		{
		"neighborhood":"Hjadstrupvej",
		"city":"Otterup",
		"state":"",
		"country":"DN",
		"id":"IOTTERUP10",
		"lat":55.510857,
		"lon":10.335687,
		"distance_km":4,
		"distance_mi":2
		},
		{
		"neighborhood":"Bøgegårdsvej",
		"city":"Skamby",
		"state":"",
		"country":"DK",
		"id":"ISKAMBY2",
		"lat":55.492134,
		"lon":10.261614,
		"distance_km":4,
		"distance_mi":2
		},
		{
		"neighborhood":"Odense",
		"city":"Søhus",
		"state":"SYDDANMARK",
		"country":"DK",
		"id":"ISYDDANM34",
		"lat":55.431358,
		"lon":10.371216,
		"distance_km":5,
		"distance_mi":3
		},
		{
		"neighborhood":"Bogegaardsvej",
		"city":"Søndersø",
		"state":"",
		"country":"DK",
		"id":"ISNDERS2",
		"lat":55.491634,
		"lon":10.257929,
		"distance_km":5,
		"distance_mi":3
		},
		{
		"neighborhood":"Fristedet",
		"city":"Odense",
		"state":"",
		"country":"DK",
		"id":"IODENSE67",
		"lat":55.424423,
		"lon":10.350924,
		"distance_km":5,
		"distance_mi":3
		},
		{
		"neighborhood":"Villestoftedalen",
		"city":"Odense",
		"state":"",
		"country":"DK",
		"id":"IODENSE73",
		"lat":55.421818,
		"lon":10.322215,
		"distance_km":5,
		"distance_mi":3
		},
		{
		"neighborhood":"Thune Nielsens Vej",
		"city":"Odense",
		"state":"",
		"country":"DK",
		"id":"IODENSE125",
		"lat":55.419285,
		"lon":10.351684,
		"distance_km":5,
		"distance_mi":3
		},
		{
		"neighborhood":"Rugårdsvej",
		"city":"Odense",
		"state":"",
		"country":"DK",
		"id":"IODENSE93",
		"lat":55.419147,
		"lon":10.294271,
		"distance_km":6,
		"distance_mi":3
		},
		{
		"neighborhood":"Åhaven",
		"city":"Odense",
		"state":"",
		"country":"DK",
		"id":"IODENSE105",
		"lat":55.417606,
		"lon":10.365136,
		"distance_km":6,
		"distance_mi":3
		},
		{
		"neighborhood":"Stigevej",
		"city":"Odense",
		"state":"",
		"country":"DK",
		"id":"IODENSE98",
		"lat":55.436409,
		"lon":10.413977,
		"distance_km":6,
		"distance_mi":3
		},
		{
		"neighborhood":"Skovløkken",
		"city":"Odense",
		"state":"",
		"country":"DK",
		"id":"IODENSE33",
		"lat":55.412380,
		"lon":10.351159,
		"distance_km":6,
		"distance_mi":3
		},
		{
		"neighborhood":"Bredbjergvej",
		"city":"Odense",
		"state":"",
		"country":"DK",
		"id":"IODENSE12",
		"lat":55.432106,
		"lon":10.245802,
		"distance_km":6,
		"distance_mi":4
		},
		{
		"neighborhood":"Brandsøvænget",
		"city":"Odense",
		"state":"",
		"country":"DK",
		"id":"IODENSE104",
		"lat":55.420456,
		"lon":10.394947,
		"distance_km":6,
		"distance_mi":4
		},
		{
		"neighborhood":"Saxovej",
		"city":"Odense",
		"state":"",
		"country":"DK",
		"id":"IODENSE102",
		"lat":55.406460,
		"lon":10.343756,
		"distance_km":7,
		"distance_mi":4
		},
		{
		"neighborhood":"Windelsvej",
		"city":"Odense",
		"state":"",
		"country":"DK",
		"id":"IODENSE55",
		"lat":55.414310,
		"lon":10.389917,
		"distance_km":7,
		"distance_mi":4
		},
		{
		"neighborhood":"Lindegårdsvej",
		"city":"Otterup",
		"state":"",
		"country":"DK",
		"id":"IOTTERUP2",
		"lat":55.520947,
		"lon":10.405146,
		"distance_km":7,
		"distance_mi":4
		},
		{
		"neighborhood":"Hørdumsgade",
		"city":"Odense",
		"state":"",
		"country":"DK",
		"id":"IODENSE6",
		"lat":55.410183,
		"lon":10.389501,
		"distance_km":7,
		"distance_mi":4
		},
		{
		"neighborhood":"Svanevej",
		"city":"Odense",
		"state":"",
		"country":"DK",
		"id":"IODENSE81",
		"lat":55.409489,
		"lon":10.404410,
		"distance_km":8,
		"distance_mi":4
		},
		{
		"neighborhood":"Niels Steensens Vej",
		"city":"Odense",
		"state":"",
		"country":"DK",
		"id":"IODENSE87",
		"lat":55.394363,
		"lon":10.345297,
		"distance_km":8,
		"distance_mi":5
		},
		{
		"neighborhood":"Vestre Stationsvej",
		"city":"Odense",
		"state":"",
		"country":"DK",
		"id":"IODENSE91",
		"lat":55.398613,
		"lon":10.376992,
		"distance_km":8,
		"distance_mi":5
		},
		{
		"neighborhood":"Danmarksgade",
		"city":"Odense",
		"state":"",
		"country":"DK",
		"id":"IODENSE4",
		"lat":55.400402,
		"lon":10.401496,
		"distance_km":8,
		"distance_mi":5
		},
		{
		"neighborhood":"Havrehed",
		"city":"Morud",
		"state":"",
		"country":"DK",
		"id":"IMORUD2",
		"lat":55.444046,
		"lon":10.193391,
		"distance_km":9,
		"distance_mi":5
		},
		{
		"neighborhood":"Skovvej",
		"city":"Morud",
		"state":"",
		"country":"DK",
		"id":"IMORUD6",
		"lat":55.444096,
		"lon":10.192745,
		"distance_km":9,
		"distance_mi":5
		},
		{
		"neighborhood":"Christiansgade",
		"city":"Odense",
		"state":"",
		"country":"DK",
		"id":"IODENSE79",
		"lat":55.396290,
		"lon":10.406564,
		"distance_km":9,
		"distance_mi":5
		},
		{
		"neighborhood":"Gartnerhaven",
		"city":"Odense",
		"state":"",
		"country":"DK",
		"id":"IODENSE53",
		"lat":55.394035,
		"lon":10.402883,
		"distance_km":9,
		"distance_mi":5
		}
		]
		}
		}
	}
		,
	"forecast":{
		"txt_forecast": {
		"date":"1:48 PM CEST",
		"forecastday": [
		{
		"period":0,
		"icon":"clear",
		"icon_url":"http://icons.wxug.com/i/c/k/clear.gif",
		"title":"Tuesday",
		"fcttext":"Sunny. Warm. High 72F. Winds ESE at 10 to 15 mph.",
		"fcttext_metric":"Sunny. Warm. High 22C. Winds ESE at 10 to 15 km/h.",
		"pop":"0"
		}
		,
		{
		"period":1,
		"icon":"nt_clear",
		"icon_url":"http://icons.wxug.com/i/c/k/nt_clear.gif",
		"title":"Tuesday Night",
		"fcttext":"Clear skies. Low 49F. Winds E at 5 to 10 mph.",
		"fcttext_metric":"Clear skies. Low around 10C. Winds E at 10 to 15 km/h.",
		"pop":"0"
		}
		,
		{
		"period":2,
		"icon":"clear",
		"icon_url":"http://icons.wxug.com/i/c/k/clear.gif",
		"title":"Wednesday",
		"fcttext":"Sunny. Warm. High 72F. Winds E at 10 to 20 mph.",
		"fcttext_metric":"Sunny skies. Warm. High 22C. Winds E at 15 to 30 km/h.",
		"pop":"0"
		}
		,
		{
		"period":3,
		"icon":"nt_clear",
		"icon_url":"http://icons.wxug.com/i/c/k/nt_clear.gif",
		"title":"Wednesday Night",
		"fcttext":"Clear. Low 48F. Winds E at 10 to 20 mph.",
		"fcttext_metric":"Clear skies. Low 9C. Winds E at 15 to 30 km/h.",
		"pop":"0"
		}
		,
		{
		"period":4,
		"icon":"clear",
		"icon_url":"http://icons.wxug.com/i/c/k/clear.gif",
		"title":"Thursday",
		"fcttext":"A mainly sunny sky. High 67F. Winds ENE at 10 to 15 mph.",
		"fcttext_metric":"A mainly sunny sky. High 19C. Winds ENE at 15 to 25 km/h.",
		"pop":"0"
		}
		,
		{
		"period":5,
		"icon":"nt_clear",
		"icon_url":"http://icons.wxug.com/i/c/k/nt_clear.gif",
		"title":"Thursday Night",
		"fcttext":"Generally fair. Low near 45F. Winds ENE at 10 to 15 mph.",
		"fcttext_metric":"Clear skies with a few passing clouds. Low 7C. Winds ENE at 15 to 25 km/h.",
		"pop":"0"
		}
		,
		{
		"period":6,
		"icon":"clear",
		"icon_url":"http://icons.wxug.com/i/c/k/clear.gif",
		"title":"Friday",
		"fcttext":"Mostly sunny skies. High 66F. Winds NW at 10 to 20 mph.",
		"fcttext_metric":"Mostly sunny skies. High 19C. Winds NW at 15 to 30 km/h.",
		"pop":"10"
		}
		,
		{
		"period":7,
		"icon":"nt_partlycloudy",
		"icon_url":"http://icons.wxug.com/i/c/k/nt_partlycloudy.gif",
		"title":"Friday Night",
		"fcttext":"Partly cloudy skies. Low 41F. Winds WNW at 10 to 20 mph.",
		"fcttext_metric":"Some clouds early will give way to generally clear conditions overnight. Low near 5C. Winds WNW at 15 to 30 km/h.",
		"pop":"10"
		}
		]
		},
		"simpleforecast": {
		"forecastday": [
		{"date":{
	"epoch":"1462899600",
	"pretty":"7:00 PM CEST on May 10, 2016",
	"day":10,
	"month":5,
	"year":2016,
	"yday":130,
	"hour":19,
	"min":"00",
	"sec":0,
	"isdst":"1",
	"monthname":"May",
	"monthname_short":"May",
	"weekday_short":"Tue",
	"weekday":"Tuesday",
	"ampm":"PM",
	"tz_short":"CEST",
	"tz_long":"Europe/Copenhagen"
},
		"period":1,
		"high": {
		"fahrenheit":"72",
		"celsius":"22"
		},
		"low": {
		"fahrenheit":"49",
		"celsius":"9"
		},
		"conditions":"Clear",
		"icon":"clear",
		"icon_url":"http://icons.wxug.com/i/c/k/clear.gif",
		"skyicon":"",
		"pop":0,
		"qpf_allday": {
		"in": 0.00,
		"mm": 0
		},
		"qpf_day": {
		"in": 0.00,
		"mm": 0
		},
		"qpf_night": {
		"in": 0.00,
		"mm": 0
		},
		"snow_allday": {
		"in": 0.0,
		"cm": 0.0
		},
		"snow_day": {
		"in": 0.0,
		"cm": 0.0
		},
		"snow_night": {
		"in": 0.0,
		"cm": 0.0
		},
		"maxwind": {
		"mph": 15,
		"kph": 24,
		"dir": "ESE",
		"degrees": 102
		},
		"avewind": {
		"mph": 10,
		"kph": 16,
		"dir": "ESE",
		"degrees": 102
		},
		"avehumidity": 48,
		"maxhumidity": 0,
		"minhumidity": 0
		}
		,
		{"date":{
	"epoch":"1462986000",
	"pretty":"7:00 PM CEST on May 11, 2016",
	"day":11,
	"month":5,
	"year":2016,
	"yday":131,
	"hour":19,
	"min":"00",
	"sec":0,
	"isdst":"1",
	"monthname":"May",
	"monthname_short":"May",
	"weekday_short":"Wed",
	"weekday":"Wednesday",
	"ampm":"PM",
	"tz_short":"CEST",
	"tz_long":"Europe/Copenhagen"
},
		"period":2,
		"high": {
		"fahrenheit":"72",
		"celsius":"22"
		},
		"low": {
		"fahrenheit":"48",
		"celsius":"9"
		},
		"conditions":"Clear",
		"icon":"clear",
		"icon_url":"http://icons.wxug.com/i/c/k/clear.gif",
		"skyicon":"",
		"pop":0,
		"qpf_allday": {
		"in": 0.00,
		"mm": 0
		},
		"qpf_day": {
		"in": 0.00,
		"mm": 0
		},
		"qpf_night": {
		"in": 0.00,
		"mm": 0
		},
		"snow_allday": {
		"in": 0.0,
		"cm": 0.0
		},
		"snow_day": {
		"in": 0.0,
		"cm": 0.0
		},
		"snow_night": {
		"in": 0.0,
		"cm": 0.0
		},
		"maxwind": {
		"mph": 20,
		"kph": 32,
		"dir": "E",
		"degrees": 100
		},
		"avewind": {
		"mph": 15,
		"kph": 24,
		"dir": "E",
		"degrees": 100
		},
		"avehumidity": 57,
		"maxhumidity": 0,
		"minhumidity": 0
		}
		,
		{"date":{
	"epoch":"1463072400",
	"pretty":"7:00 PM CEST on May 12, 2016",
	"day":12,
	"month":5,
	"year":2016,
	"yday":132,
	"hour":19,
	"min":"00",
	"sec":0,
	"isdst":"1",
	"monthname":"May",
	"monthname_short":"May",
	"weekday_short":"Thu",
	"weekday":"Thursday",
	"ampm":"PM",
	"tz_short":"CEST",
	"tz_long":"Europe/Copenhagen"
},
		"period":3,
		"high": {
		"fahrenheit":"67",
		"celsius":"19"
		},
		"low": {
		"fahrenheit":"45",
		"celsius":"7"
		},
		"conditions":"Clear",
		"icon":"clear",
		"icon_url":"http://icons.wxug.com/i/c/k/clear.gif",
		"skyicon":"",
		"pop":0,
		"qpf_allday": {
		"in": 0.00,
		"mm": 0
		},
		"qpf_day": {
		"in": 0.00,
		"mm": 0
		},
		"qpf_night": {
		"in": 0.00,
		"mm": 0
		},
		"snow_allday": {
		"in": 0.0,
		"cm": 0.0
		},
		"snow_day": {
		"in": 0.0,
		"cm": 0.0
		},
		"snow_night": {
		"in": 0.0,
		"cm": 0.0
		},
		"maxwind": {
		"mph": 15,
		"kph": 24,
		"dir": "ENE",
		"degrees": 78
		},
		"avewind": {
		"mph": 12,
		"kph": 19,
		"dir": "ENE",
		"degrees": 78
		},
		"avehumidity": 62,
		"maxhumidity": 0,
		"minhumidity": 0
		}
		,
		{"date":{
	"epoch":"1463158800",
	"pretty":"7:00 PM CEST on May 13, 2016",
	"day":13,
	"month":5,
	"year":2016,
	"yday":133,
	"hour":19,
	"min":"00",
	"sec":0,
	"isdst":"1",
	"monthname":"May",
	"monthname_short":"May",
	"weekday_short":"Fri",
	"weekday":"Friday",
	"ampm":"PM",
	"tz_short":"CEST",
	"tz_long":"Europe/Copenhagen"
},
		"period":4,
		"high": {
		"fahrenheit":"66",
		"celsius":"19"
		},
		"low": {
		"fahrenheit":"41",
		"celsius":"5"
		},
		"conditions":"Clear",
		"icon":"clear",
		"icon_url":"http://icons.wxug.com/i/c/k/clear.gif",
		"skyicon":"",
		"pop":10,
		"qpf_allday": {
		"in": 0.00,
		"mm": 0
		},
		"qpf_day": {
		"in": 0.00,
		"mm": 0
		},
		"qpf_night": {
		"in": 0.00,
		"mm": 0
		},
		"snow_allday": {
		"in": 0.0,
		"cm": 0.0
		},
		"snow_day": {
		"in": 0.0,
		"cm": 0.0
		},
		"snow_night": {
		"in": 0.0,
		"cm": 0.0
		},
		"maxwind": {
		"mph": 20,
		"kph": 32,
		"dir": "NW",
		"degrees": 316
		},
		"avewind": {
		"mph": 13,
		"kph": 21,
		"dir": "NW",
		"degrees": 316
		},
		"avehumidity": 54,
		"maxhumidity": 0,
		"minhumidity": 0
		}
		]
		}
	}
}
